{"type": "FeatureCollection", "features": [{"type": "Feature", "properties": {"id": "5348552838499690", "name": "Стоматология на Двинской, стоматологическая клиника", "address_name": "Двинская улица, 10 к5", "rubrics": "Частные стоматологии"}, "geometry": {"type": "Point", "coordinates": [30.248402, 59.906914]}}, {"type": "Feature", "properties": {"id": "5348552840600749", "name": "Ультрадент, стоматологическая клиника", "address_name": "Канонерский остров, 24", "rubrics": "Частные стоматологии"}, "geometry": {"type": "Point", "coordinates": [30.222102, 59.903443]}}, {"type": "Feature", "properties": {"id": "5348552838710640", "name": "Стоматологическая поликлиника №10", "address_name": "Огородный переулок, 4 к2", "rubrics": "Стоматологические поликлиники"}, "geometry": {"type": "Point", "coordinates": [30.271508, 59.887413]}}, {"type": "Feature", "properties": {"id": "5348552840603647", "name": "Европейский мужчина и его здоровье, медицинский центр", "address_name": "Гапсальская улица, 2", "rubrics": "Частные стоматологии,Медицинские комиссии,Медицинская диагностика,Уролог,Андролог"}, "geometry": {"type": "Point", "coordinates": [30.260213, 59.912389]}}, {"type": "Feature", "properties": {"id": "70000001097448219", "name": "Поколение, стоматологическая клиника", "address_name": "Стачек проспект, 19", "rubrics": "Частные стоматологии"}, "geometry": {"type": "Point", "coordinates": [30.27274, 59.892986]}}, {"type": "Feature", "properties": {"id": "5348552838497211", "name": "Алиса, стоматологическая клиника", "address_name": "Балтийская улица, 3", "rubrics": "Частные стоматологии"}, "geometry": {"type": "Point", "coordinates": [30.280958, 59.897485]}}, {"type": "Feature", "properties": {"id": "70000001039077220", "name": "Оксидент, стоматологическая клиника", "address_name": "Стачек проспект, 15", "rubrics": "Частные стоматологии"}, "geometry": {"type": "Point", "coordinates": [30.274905, 59.894507]}}, {"type": "Feature", "properties": {"id": "70000001024447609", "name": "Мой Зубной, сеть стоматологических центров", "address_name": "Стачек проспект, 28", "rubrics": "Частные стоматологии"}, "geometry": {"type": "Point", "coordinates": [30.271304, 59.889286]}}, {"type": "Feature", "properties": {"id": "5348552840668589", "name": "Стоматологическая поликлиника №10", "address_name": "улица Маршала Говорова, 32", "rubrics": "Стоматологические поликлиники"}, "geometry": {"type": "Point", "coordinates": [30.277647, 59.889673]}}, {"type": "Feature", "properties": {"id": "70000001101256049", "name": "Друзья, стоматологическая клиника", "address_name": "улица Трефолева, 15", "rubrics": "Частные стоматологии"}, "geometry": {"type": "Point", "coordinates": [30.269742, 59.89116]}}, {"type": "Feature", "properties": {"id": "70000001053003482", "name": "Стандарт, медицинский стоматологический центр", "address_name": "Стачек проспект, 16", "rubrics": "Частные стоматологии"}, "geometry": {"type": "Point", "coordinates": [30.279584, 59.897375]}}, {"type": "Feature", "properties": {"id": "70000001019821659", "name": "Нарва, стоматологическая клиника", "address_name": "улица Зои Космодемьянской, 6 к1", "rubrics": "Частные стоматологии"}, "geometry": {"type": "Point", "coordinates": [30.270814, 59.892894]}}, {"type": "Feature", "properties": {"id": "5348553838997503", "name": "Аннет стом, стоматологическая клиника", "address_name": "Стачек проспект, 26", "rubrics": "Частные стоматологии"}, "geometry": {"type": "Point", "coordinates": [30.273382, 59.889875]}}, {"type": "Feature", "properties": {"id": "5348552838507324", "name": "Зуб золотой, стоматологический кабинет", "address_name": "Межевой канал, 8", "rubrics": "Частные стоматологии"}, "geometry": {"type": "Point", "coordinates": [30.25413, 59.910406]}}, {"type": "Feature", "properties": {"id": "70000001038683938", "name": "Мой Зубной, сеть стоматологических центров", "address_name": "улица Генерала Симоняка, 9", "rubrics": "Частные стоматологии,Частные детские стоматологии"}, "geometry": {"type": "Point", "coordinates": [30.202874, 59.829981]}}, {"type": "Feature", "properties": {"id": "5348553838988333", "name": "Веа-Дент, стоматологическая клиника", "address_name": "проспект Ветеранов, 108 к1", "rubrics": "Частные стоматологии,Зуботехнические лаборатории,Челюстно-лицевой хирург"}, "geometry": {"type": "Point", "coordinates": [30.206821, 59.832797]}}, {"type": "Feature", "properties": {"id": "5348552839177070", "name": "Стандарт, медицинский стоматологический центр", "address_name": "проспект Ветеранов, 109 к3", "rubrics": "Частные стоматологии,Товары для стоматологий"}, "geometry": {"type": "Point", "coordinates": [30.197539, 59.833876]}}, {"type": "Feature", "properties": {"id": "70000001017216124", "name": "Юго-Запад Дент, стоматологическая клиника", "address_name": "проспект Ветеранов, 114 к1", "rubrics": "Частные стоматологии"}, "geometry": {"type": "Point", "coordinates": [30.197834, 59.832443]}}, {"type": "Feature", "properties": {"id": "70000001026706411", "name": "Доктор плюс, стоматологическая клиника", "address_name": "проспект Маршала Жукова, 60г", "rubrics": "Частные стоматологии"}, "geometry": {"type": "Point", "coordinates": [30.204581, 59.837928]}}, {"type": "Feature", "properties": {"id": "70000001099163013", "name": "Виктория, стоматологический кабинет", "address_name": "Стойкости, 34 к1", "rubrics": "Частные стоматологии"}, "geometry": {"type": "Point", "coordinates": [30.194228, 59.827568]}}, {"type": "Feature", "properties": {"id": "5348552838501800", "name": "Radix, стоматологическая клиника", "address_name": "улица Генерала Симоняка, 6", "rubrics": "Частные стоматологии"}, "geometry": {"type": "Point", "coordinates": [30.205269, 59.830204]}}, {"type": "Feature", "properties": {"id": "5348552838499823", "name": "Райден, сеть стоматологических клиник", "address_name": "Ленинский проспект, 116", "rubrics": "Частные стоматологии,Частные детские стоматологии"}, "geometry": {"type": "Point", "coordinates": [30.248574, 59.852629]}}, {"type": "Feature", "properties": {"id": "70000001088101132", "name": "Айсберг, центр имплантации и стоматологии", "address_name": "проспект Ветеранов, 52 к1", "rubrics": "Частные стоматологии"}, "geometry": {"type": "Point", "coordinates": [30.241508, 59.84027]}}, {"type": "Feature", "properties": {"id": "70000001024364471", "name": "Интан, центр имплантации и стоматологии", "address_name": "улица Солдата Корзуна, 1 к2", "rubrics": "Частные стоматологии"}, "geometry": {"type": "Point", "coordinates": [30.217144, 59.83403]}}, {"type": "Feature", "properties": {"id": "70000001006922375", "name": "Мой Зубной, сеть стоматологических центров", "address_name": "Ленинский проспект, 114", "rubrics": "Частные стоматологии"}, "geometry": {"type": "Point", "coordinates": [30.243741, 59.852399]}}, {"type": "Feature", "properties": {"id": "5348552838501878", "name": "Стеллит, центр имплантации и цифровой стоматологии", "address_name": "улица Лёни Голикова, 27 к3", "rubrics": "Частные стоматологии,Частные детские стоматологии"}, "geometry": {"type": "Point", "coordinates": [30.228051, 59.843284]}}, {"type": "Feature", "properties": {"id": "70000001030209233", "name": "Мой Зубной, сеть стоматологических центров", "address_name": "бульвар Новаторов, 98", "rubrics": "Частные стоматологии,Частные детские стоматологии"}, "geometry": {"type": "Point", "coordinates": [30.253573, 59.840691]}}, {"type": "Feature", "properties": {"id": "5348552841581946", "name": "Unident, стоматологическая клиника", "address_name": "Ленинский проспект, 117 к1", "rubrics": "Частные стоматологии"}, "geometry": {"type": "Point", "coordinates": [30.253233, 59.851427]}}, {"type": "Feature", "properties": {"id": "5348552841101526", "name": "Медикор, стоматологическая клиника", "address_name": "проспект Маршала Жукова, 48 к1", "rubrics": "Частные стоматологии"}, "geometry": {"type": "Point", "coordinates": [30.212735, 59.844119]}}, {"type": "Feature", "properties": {"id": "70000001018205596", "name": "Морской медицинский центр", "address_name": "Народного Ополчения проспект, 189", "rubrics": "Частные стоматологии,Медицинская диагностика,Медицинские комиссии,Медицинские анализы"}, "geometry": {"type": "Point", "coordinates": [30.21115, 59.824786]}}, {"type": "Feature", "properties": {"id": "70000001067268755", "name": "Миадент, стоматологическая клиника", "address_name": "проспект Маршала Жукова, 54 к6", "rubrics": "Частные стоматологии,Челюстно-лицевой хирург,Частные детские стоматологии,Зуботехнические лаборатории"}, "geometry": {"type": "Point", "coordinates": [30.211714, 59.839878]}}, {"type": "Feature", "properties": {"id": "5348552840256842", "name": "Стом Холл, стоматологическая клиника", "address_name": "Ленинский проспект, 111 к2", "rubrics": "Частные стоматологии"}, "geometry": {"type": "Point", "coordinates": [30.244408, 59.850461]}}, {"type": "Feature", "properties": {"id": "70000001019286498", "name": "Дункан, центр детской стоматологии", "address_name": "улица Солдата Корзуна, 4", "rubrics": "Частные детские стоматологии"}, "geometry": {"type": "Point", "coordinates": [30.211363, 59.843076]}}, {"type": "Feature", "properties": {"id": "70000001044495170", "name": "Позитив, стоматологическая клиника", "address_name": "Ленинский проспект, 114", "rubrics": "Частные стоматологии"}, "geometry": {"type": "Point", "coordinates": [30.242373, 59.853493]}}, {"type": "Feature", "properties": {"id": "70000001020727902", "name": "Стоматология для взрослых", "address_name": "Дачный проспект, 14 к3", "rubrics": "Частные стоматологии"}, "geometry": {"type": "Point", "coordinates": [30.252763, 59.844306]}}, {"type": "Feature", "properties": {"id": "70000001045558343", "name": "Семейная стоматология №1, стоматологический центр", "address_name": "Народного Ополчения проспект, 149 лит А", "rubrics": "Частные стоматологии,Зуботехнические лаборатории,Частные детские стоматологии"}, "geometry": {"type": "Point", "coordinates": [30.247373, 59.831143]}}, {"type": "Feature", "properties": {"id": "5348552838507566", "name": "Юланд, эстетико-стоматологический центр", "address_name": "улица Лёни Голикова, 3", "rubrics": "Частные стоматологии"}, "geometry": {"type": "Point", "coordinates": [30.22819, 59.847393]}}, {"type": "Feature", "properties": {"id": "70000001022902845", "name": "Новая стоматология", "address_name": "Дачный проспект, 2 к2", "rubrics": "Частные стоматологии"}, "geometry": {"type": "Point", "coordinates": [30.243096, 59.849561]}}, {"type": "Feature", "properties": {"id": "5348552838501801", "name": "Radix, стоматологическая клиника", "address_name": "улица Танкиста Хрустицкого, 5", "rubrics": "Частные стоматологии"}, "geometry": {"type": "Point", "coordinates": [30.247716, 59.839813]}}, {"type": "Feature", "properties": {"id": "70000001102609531", "name": "Фабрика улыбок, стоматологическая клиника", "address_name": "Ленинский проспект, 114", "rubrics": "Частные стоматологии"}, "geometry": {"type": "Point", "coordinates": [30.244052, 59.852401]}}, {"type": "Feature", "properties": {"id": "5348553838830283", "name": "Мой стоматолог, стоматологическая клиника", "address_name": "Ленинский проспект, 114", "rubrics": "Частные стоматологии"}, "geometry": {"type": "Point", "coordinates": [30.243924, 59.852382]}}, {"type": "Feature", "properties": {"id": "5348552838501799", "name": "Radix, стоматологическая клиника", "address_name": "проспект Ветеранов, 89 к4", "rubrics": "Частные стоматологии"}, "geometry": {"type": "Point", "coordinates": [30.214083, 59.837619]}}, {"type": "Feature", "properties": {"id": "70000001065105717", "name": "Алина, стоматологический центр", "address_name": "Ленинский проспект, 111 к1", "rubrics": "Частные стоматологии"}, "geometry": {"type": "Point", "coordinates": [30.243255, 59.851133]}}, {"type": "Feature", "properties": {"id": "5348552839179044", "name": "Дентал-Спа, стоматологическая клиника", "address_name": "улица Лёни Голикова, 96", "rubrics": "Частные стоматологии"}, "geometry": {"type": "Point", "coordinates": [30.248384, 59.834539]}}, {"type": "Feature", "properties": {"id": "5348552838706627", "name": "Стоматологическая поликлиника №11", "address_name": "Народного Ополчения проспект, 5", "rubrics": "Стоматологические поликлиники"}, "geometry": {"type": "Point", "coordinates": [30.279802, 59.852547]}}, {"type": "Feature", "properties": {"id": "70000001060897800", "name": "Bright smile, центр имплантации и стоматологии", "address_name": "Ленинский проспект, 125", "rubrics": "Частные стоматологии"}, "geometry": {"type": "Point", "coordinates": [30.26355, 59.85142]}}, {"type": "Feature", "properties": {"id": "70000001033375620", "name": "Фактор Улыбки, стоматология", "address_name": "Народного Ополчения проспект, 10 лит А", "rubrics": "Частные стоматологии,Остеопат,Частные детские стоматологии"}, "geometry": {"type": "Point", "coordinates": [30.281213, 59.850286]}}, {"type": "Feature", "properties": {"id": "70000001020791350", "name": "Клиника Доброго Стоматолога", "address_name": "Народного Ополчения проспект, 10", "rubrics": "Частные стоматологии,Частные детские стоматологии"}, "geometry": {"type": "Point", "coordinates": [30.282031, 59.851356]}}, {"type": "Feature", "properties": {"id": "5348553839117073", "name": "Раденталь, стоматологический центр", "address_name": "бульвар Новаторов, 8", "rubrics": "Частные стоматологии"}, "geometry": {"type": "Point", "coordinates": [30.26953, 59.850796]}}, {"type": "Feature", "properties": {"id": "70000001066197963", "name": "DS, стоматологическая клиника", "address_name": "Ленинский проспект, 131", "rubrics": "Частные стоматологии"}, "geometry": {"type": "Point", "coordinates": [30.273052, 59.851293]}}, {"type": "Feature", "properties": {"id": "5348552838512530", "name": "Очарование, стоматология", "address_name": "Народного Ополчения проспект, 6", "rubrics": "Частные стоматологии"}, "geometry": {"type": "Point", "coordinates": [30.282366, 59.853528]}}, {"type": "Feature", "properties": {"id": "5348552838505309", "name": "Стоматология комфорта, клиника", "address_name": "улица Зины Портновой, 54", "rubrics": "Частные стоматологии"}, "geometry": {"type": "Point", "coordinates": [30.256686, 59.848179]}}, {"type": "Feature", "properties": {"id": "70000001039651757", "name": "Мой Зубной, сеть стоматологических центров", "address_name": "бульвар Новаторов, 29 к2", "rubrics": "Частные стоматологии,Частные детские стоматологии"}, "geometry": {"type": "Point", "coordinates": [30.267426, 59.847881]}}, {"type": "Feature", "properties": {"id": "5348552838506431", "name": "Дункан, центр детской стоматологии", "address_name": "Ленинский проспект, 133 к2", "rubrics": "Частные детские стоматологии"}, "geometry": {"type": "Point", "coordinates": [30.274415, 59.851011]}}, {"type": "Feature", "properties": {"id": "70000001026629099", "name": "Космодентис, стоматологическая клиника", "address_name": "бульвар Новаторов, 8", "rubrics": "Частные стоматологии"}, "geometry": {"type": "Point", "coordinates": [30.269205, 59.850239]}}, {"type": "Feature", "properties": {"id": "70000001093501739", "name": "Имплантида, стоматологическая клиника", "address_name": "бульвар Новаторов, 11 лит А", "rubrics": "Частные стоматологии"}, "geometry": {"type": "Point", "coordinates": [30.267198, 59.850262]}}, {"type": "Feature", "properties": {"id": "70000001089765004", "name": "Стоматологический кабинет", "address_name": "Счастливая улица, 5Б", "rubrics": "Частные стоматологии"}, "geometry": {"type": "Point", "coordinates": [30.271251, 59.844822]}}, {"type": "Feature", "properties": {"id": "70000001103059278", "name": "Стоматология", "address_name": "бульвар Новаторов, 1", "rubrics": "Частные стоматологии"}, "geometry": {"type": "Point", "coordinates": [30.267223, 59.853605]}}]}