{
  "type": "FeatureCollection",
  "features": [
    {
      "type": "Feature",
      "properties": {
        "id": "70000001105263193",
        "name": "Невис, аптека",
        "address_name": "Канонерский остров, 22/1",
        "rubrics": "Аптеки"
      },
      "geometry": {
        "type": "Point",
        "coordinates": [
          30.220219,
          59.903347
        ]
      }
    },
    {
      "type": "Feature",
      "properties": {
        "id": "70000001007291956",
        "name": "Невис, аптека",
        "address_name": "Двинская улица, 11",
        "rubrics": "Аптеки,Оптика,Доставка лекарств,Медицинские приборы,БАДы"
      },
      "geometry": {
        "type": "Point",
        "coordinates": [
          30.246583,
          59.909347
        ]
      }
    },
    {
      "type": "Feature",
      "properties": {
        "id": "70000001104889435",
        "name": "Столички, социальная аптека",
        "address_name": "Двинская улица, 6",
        "rubrics": "Аптеки"
      },
      "geometry": {
        "type": "Point",
        "coordinates": [
          30.252785,
          59.908945
        ]
      }
    },
    {
      "type": "Feature",
      "properties": {
        "id": "70000001059396384",
        "name": "Апрель, аптека",
        "address_name": "Стачек проспект, 15",
        "rubrics": "Аптеки,Медицинские приборы,Средства гигиены,Доставка лекарств"
      },
      "geometry": {
        "type": "Point",
        "coordinates": [
          30.274845,
          59.894269
        ]
      }
    },
    {
      "type": "Feature",
      "properties": {
        "id": "70000001032721675",
        "name": "Вита Экспресс, аптека",
        "address_name": "Стачек проспект, 4/1",
        "rubrics": "Аптеки,Средства гигиены,БАДы,Медицинские приборы,Доставка лекарств"
      },
      "geometry": {
        "type": "Point",
        "coordinates": [
          30.275552,
          59.899066
        ]
      }
    },
    {
      "type": "Feature",
      "properties": {
        "id": "70000001033088949",
        "name": "Невис, аптека",
        "address_name": "улица Трефолева, 15",
        "rubrics": "Аптеки,Доставка лекарств,БАДы,Медицинские приборы"
      },
      "geometry": {
        "type": "Point",
        "coordinates": [
          30.270639,
          59.890932
        ]
      }
    },
    {
      "type": "Feature",
      "properties": {
        "id": "70000001041144645",
        "name": "Леноблфарм, аптека",
        "address_name": "Стачек проспект, 1",
        "rubrics": "Аптеки,Оптика"
      },
      "geometry": {
        "type": "Point",
        "coordinates": [
          30.274539,
          59.898812
        ]
      }
    },
    {
      "type": "Feature",
      "properties": {
        "id": "70000001086989677",
        "name": "Здравсити, аптека",
        "address_name": "улица Трефолева, 22/25",
        "rubrics": "Аптеки,Доставка лекарств"
      },
      "geometry": {
        "type": "Point",
        "coordinates": [
          30.269957,
          59.890652
        ]
      }
    },
    {
      "type": "Feature",
      "properties": {
        "id": "70000001039799261",
        "name": "Ригла, аптека",
        "address_name": "площадь Стачек, 9",
        "rubrics": "Аптеки,Медицинские приборы,Доставка лекарств,БАДы,Средства гигиены"
      },
      "geometry": {
        "type": "Point",
        "coordinates": [
          30.272732,
          59.899735
        ]
      }
    },
    {
      "type": "Feature",
      "properties": {
        "id": "5348552838486132",
        "name": "Невис, аптека",
        "address_name": "Стачек проспект, 15",
        "rubrics": "Аптеки,Доставка лекарств"
      },
      "geometry": {
        "type": "Point",
        "coordinates": [
          30.274934,
          59.894627
        ]
      }
    },
    {
      "type": "Feature",
      "properties": {
        "id": "70000001069303795",
        "name": "Столички, социальная аптека",
        "address_name": "Стачек проспект, 41",
        "rubrics": "Аптеки,БАДы"
      },
      "geometry": {
        "type": "Point",
        "coordinates": [
          30.26801,
          59.887158
        ]
      }
    },
    {
      "type": "Feature",
      "properties": {
        "id": "70000001092459514",
        "name": "Столички, социальная аптека",
        "address_name": "Стачек проспект, 6",
        "rubrics": "Аптеки,БАДы,Медицинские расходные материалы"
      },
      "geometry": {
        "type": "Point",
        "coordinates": [
          30.275951,
          59.898846
        ]
      }
    },
    {
      "type": "Feature",
      "properties": {
        "id": "70000001100883714",
        "name": "Столички, социальная аптека",
        "address_name": "Стачек проспект, 22",
        "rubrics": "Аптеки"
      },
      "geometry": {
        "type": "Point",
        "coordinates": [
          30.272675,
          59.890835
        ]
      }
    },
    {
      "type": "Feature",
      "properties": {
        "id": "70000001096081722",
        "name": "Здравсити, аптека",
        "address_name": "Балтийская улица, 2",
        "rubrics": "Аптеки,БАДы,Медицинские приборы,Доставка лекарств,Медицинские расходные материалы"
      },
      "geometry": {
        "type": "Point",
        "coordinates": [
          30.278168,
          59.897298
        ]
      }
    },
    {
      "type": "Feature",
      "properties": {
        "id": "70000001039073390",
        "name": "Горздрав, аптека",
        "address_name": "Стачек проспект, 22",
        "rubrics": "Аптеки,Доставка лекарств"
      },
      "geometry": {
        "type": "Point",
        "coordinates": [
          30.27257,
          59.89073
        ]
      }
    },
    {
      "type": "Feature",
      "properties": {
        "id": "70000001030540073",
        "name": "Озерки, аптека",
        "address_name": "Стачек проспект, 1",
        "rubrics": "Аптеки,БАДы,Средства гигиены,Медицинские приборы"
      },
      "geometry": {
        "type": "Point",
        "coordinates": [
          30.274851,
          59.898433
        ]
      }
    },
    {
      "type": "Feature",
      "properties": {
        "id": "70000001061099896",
        "name": "Планета, аптечный пункт",
        "address_name": "Двинская улица, 3",
        "rubrics": "Аптеки"
      },
      "geometry": {
        "type": "Point",
        "coordinates": [
          30.256295,
          59.90925
        ]
      }
    },
    {
      "type": "Feature",
      "properties": {
        "id": "70000001056994873",
        "name": "Алоэ, аптека",
        "address_name": "Урхов переулок, 7 лит А",
        "rubrics": "Аптеки,Доставка лекарств"
      },
      "geometry": {
        "type": "Point",
        "coordinates": [
          30.281651,
          59.893017
        ]
      }
    },
    {
      "type": "Feature",
      "properties": {
        "id": "70000001087332845",
        "name": "ID, аптека",
        "address_name": "Ивана Черных, 25",
        "rubrics": "Аптеки"
      },
      "geometry": {
        "type": "Point",
        "coordinates": [
          30.28312,
          59.901861
        ]
      }
    },
    {
      "type": "Feature",
      "properties": {
        "id": "70000001104541226",
        "name": "Леноблфарм, аптека",
        "address_name": "Промышленная улица, 21 ст1",
        "rubrics": "Аптеки,Доставка лекарств"
      },
      "geometry": {
        "type": "Point",
        "coordinates": [
          30.257811,
          59.896639
        ]
      }
    },
    {
      "type": "Feature",
      "properties": {
        "id": "5348552839944746",
        "name": "Здравсити, аптека",
        "address_name": "улица Трефолева, 22",
        "rubrics": "Аптеки,Средства гигиены,Медицинские приборы"
      },
      "geometry": {
        "type": "Point",
        "coordinates": [
          30.270011,
          59.890689
        ]
      }
    },
    {
      "type": "Feature",
      "properties": {
        "id": "70000001044855148",
        "name": "Вита Экспресс, аптека",
        "address_name": "Стачек проспект, 99",
        "rubrics": "Аптеки,Доставка лекарств,Фитопродукция,Медицинские приборы,БАДы"
      },
      "geometry": {
        "type": "Point",
        "coordinates": [
          30.248654,
          59.858942
        ]
      }
    },
    {
      "type": "Feature",
      "properties": {
        "id": "70000001051610886",
        "name": "Столички, социальная аптека",
        "address_name": "улица Маршала Казакова, 1 к1 лит Д",
        "rubrics": "Аптеки,Доставка лекарств"
      },
      "geometry": {
        "type": "Point",
        "coordinates": [
          30.247171,
          59.860189
        ]
      }
    },
    {
      "type": "Feature",
      "properties": {
        "id": "70000001089889593",
        "name": "Озерки, аптека",
        "address_name": "проспект Маршала Жукова, 30 к1",
        "rubrics": "Аптеки,Медицинские приборы,Средства гигиены,БАДы,Медицинские расходные материалы"
      },
      "geometry": {
        "type": "Point",
        "coordinates": [
          30.231284,
          59.857036
        ]
      }
    },
    {
      "type": "Feature",
      "properties": {
        "id": "70000001043412607",
        "name": "Алоэ, аптека",
        "address_name": "Стачек проспект, 105",
        "rubrics": "Аптеки,Доставка лекарств"
      },
      "geometry": {
        "type": "Point",
        "coordinates": [
          30.241037,
          59.855178
        ]
      }
    },
    {
      "type": "Feature",
      "properties": {
        "id": "70000001084007281",
        "name": "Аптека плюс",
        "address_name": "Стачек проспект, 101 к1",
        "rubrics": "Аптеки"
      },
      "geometry": {
        "type": "Point",
        "coordinates": [
          30.246716,
          59.859116
        ]
      }
    },
    {
      "type": "Feature",
      "properties": {
        "id": "70000001094725323",
        "name": "Здравсити, аптека",
        "address_name": "улица Маршала Казакова, 1 к1 лит В",
        "rubrics": "Аптеки,Доставка лекарств,БАДы,Медицинские расходные материалы,Медицинские приборы"
      },
      "geometry": {
        "type": "Point",
        "coordinates": [
          30.248194,
          59.860499
        ]
      }
    },
    {
      "type": "Feature",
      "properties": {
        "id": "70000001050919505",
        "name": "Леноблфарм, аптека",
        "address_name": "проспект Маршала Жукова, 30 к4",
        "rubrics": "Аптеки,Доставка лекарств,Оптика"
      },
      "geometry": {
        "type": "Point",
        "coordinates": [
          30.229282,
          59.856323
        ]
      }
    },
    {
      "type": "Feature",
      "properties": {
        "id": "70000001040615245",
        "name": "Вита Экспресс, аптека",
        "address_name": "улица Маршала Казакова, 1 к1",
        "rubrics": "Аптеки,Доставка лекарств"
      },
      "geometry": {
        "type": "Point",
        "coordinates": [
          30.24822,
          59.859943
        ]
      }
    },
    {
      "type": "Feature",
      "properties": {
        "id": "5348552839944740",
        "name": "Здравсити, аптека",
        "address_name": "улица Маршала Казакова, 1 к1",
        "rubrics": "Аптеки,Доставка лекарств,Медицинские приборы"
      },
      "geometry": {
        "type": "Point",
        "coordinates": [
          30.248853,
          59.859906
        ]
      }
    },
    {
      "type": "Feature",
      "properties": {
        "id": "70000001059450833",
        "name": "Еаптека, аптечный пункт",
        "address_name": "улица Маршала Говорова, 12 к1",
        "rubrics": "Аптеки,БАДы,Доставка лекарств,Ортопедические товары,Медицинские приборы"
      },
      "geometry": {
        "type": "Point",
        "coordinates": [
          30.26638,
          59.878836
        ]
      }
    },
    {
      "type": "Feature",
      "properties": {
        "id": "70000001104394162",
        "name": "Ваша №1, аптека",
        "address_name": "Стачек проспект, 94",
        "rubrics": "Аптеки,Фитопродукция"
      },
      "geometry": {
        "type": "Point",
        "coordinates": [
          30.261341,
          59.866755
        ]
      }
    },
    {
      "type": "Feature",
      "properties": {
        "id": "70000001057536931",
        "name": "Апрель, аптека",
        "address_name": "Стачек проспект, 75",
        "rubrics": "Аптеки"
      },
      "geometry": {
        "type": "Point",
        "coordinates": [
          30.25957,
          59.867283
        ]
      }
    },
    {
      "type": "Feature",
      "properties": {
        "id": "70000001007474740",
        "name": "Петербургские аптеки, аптека №88",
        "address_name": "Стачек проспект, 88",
        "rubrics": "Аптеки,Фитопродукция,Средства гигиены,БАДы,Медицинские приборы"
      },
      "geometry": {
        "type": "Point",
        "coordinates": [
          30.260504,
          59.868913
        ]
      }
    },
    {
      "type": "Feature",
      "properties": {
        "id": "70000001100890752",
        "name": "Здоров.ру, аптека",
        "address_name": "Стачек проспект, 88",
        "rubrics": "Аптеки,Доставка лекарств"
      },
      "geometry": {
        "type": "Point",
        "coordinates": [
          30.260542,
          59.868773
        ]
      }
    },
    {
      "type": "Feature",
      "properties": {
        "id": "5348552838480870",
        "name": "Озерки, аптека",
        "address_name": "Стачек проспект, 75",
        "rubrics": "Аптеки,Доставка лекарств"
      },
      "geometry": {
        "type": "Point",
        "coordinates": [
          30.259669,
          59.866936
        ]
      }
    },
    {
      "type": "Feature",
      "properties": {
        "id": "70000001029720601",
        "name": "Омнифарм, аптека",
        "address_name": "улица Васи Алексеева, 26",
        "rubrics": "Аптеки,Доставка лекарств,Медицинские расходные материалы"
      },
      "geometry": {
        "type": "Point",
        "coordinates": [
          30.275616,
          59.877081
        ]
      }
    },
    {
      "type": "Feature",
      "properties": {
        "id": "70000001068422227",
        "name": "Озерки, аптека",
        "address_name": "улица Маршала Говорова, 11/3",
        "rubrics": "Аптеки,Средства гигиены,Медицинские приборы,БАДы"
      },
      "geometry": {
        "type": "Point",
        "coordinates": [
          30.267534,
          59.878537
        ]
      }
    },
    {
      "type": "Feature",
      "properties": {
        "id": "70000001057303013",
        "name": "Столички, социальная аптека",
        "address_name": "Стачек проспект, 75",
        "rubrics": "Аптеки"
      },
      "geometry": {
        "type": "Point",
        "coordinates": [
          30.25953,
          59.867727
        ]
      }
    },
    {
      "type": "Feature",
      "properties": {
        "id": "70000001025832781",
        "name": "Горздрав, аптека",
        "address_name": "Стачек проспект, 90",
        "rubrics": "Аптеки,Доставка лекарств,БАДы,Медицинские приборы,Средства гигиены"
      },
      "geometry": {
        "type": "Point",
        "coordinates": [
          30.260956,
          59.867996
        ]
      }
    },
    {
      "type": "Feature",
      "properties": {
        "id": "70000001063527209",
        "name": "Апрель, аптека",
        "address_name": "улица Васи Алексеева, 13",
        "rubrics": "Аптеки,Фитопродукция,Средства гигиены,Доставка лекарств,Детское питание"
      },
      "geometry": {
        "type": "Point",
        "coordinates": [
          30.270927,
          59.877628
        ]
      }
    },
    {
      "type": "Feature",
      "properties": {
        "id": "70000001040109770",
        "name": "Магнит Аптека",
        "address_name": "Краснопутиловская улица, 12",
        "rubrics": "Аптеки,Фитопродукция,БАДы"
      },
      "geometry": {
        "type": "Point",
        "coordinates": [
          30.264887,
          59.873056
        ]
      }
    },
    {
      "type": "Feature",
      "properties": {
        "id": "5348552839992116",
        "name": "Невис, аптека",
        "address_name": "Автовская улица, 15",
        "rubrics": "Аптеки,Медицинские приборы,Доставка лекарств"
      },
      "geometry": {
        "type": "Point",
        "coordinates": [
          30.26838,
          59.86753
        ]
      }
    },
    {
      "type": "Feature",
      "properties": {
        "id": "70000001056598517",
        "name": "Столички, социальная аптека",
        "address_name": "улица Маршала Говорова, 14",
        "rubrics": "Аптеки,Ортопедические товары,БАДы,Медицинские приборы"
      },
      "geometry": {
        "type": "Point",
        "coordinates": [
          30.267436,
          59.879732
        ]
      }
    },
    {
      "type": "Feature",
      "properties": {
        "id": "70000001066097158",
        "name": "Апрель, аптека",
        "address_name": "Краснопутиловская улица, 14",
        "rubrics": "Аптеки,Средства гигиены,Фитопродукция,Доставка лекарств,Детское питание"
      },
      "geometry": {
        "type": "Point",
        "coordinates": [
          30.266072,
          59.872396
        ]
      }
    },
    {
      "type": "Feature",
      "properties": {
        "id": "70000001034000775",
        "name": "Озерки, аптека",
        "address_name": "Стачек проспект, 67 к3",
        "rubrics": "Аптеки,Средства гигиены,БАДы,Медицинские приборы"
      },
      "geometry": {
        "type": "Point",
        "coordinates": [
          30.259182,
          59.870667
        ]
      }
    },
    {
      "type": "Feature",
      "properties": {
        "id": "70000001062341120",
        "name": "Вита Экспресс, аптека",
        "address_name": "улица Васи Алексеева, 10",
        "rubrics": "Аптеки,Доставка лекарств,Фитопродукция,БАДы"
      },
      "geometry": {
        "type": "Point",
        "coordinates": [
          30.267873,
          59.879073
        ]
      }
    },
    {
      "type": "Feature",
      "properties": {
        "id": "70000001069876090",
        "name": "Вита Экспресс, аптека",
        "address_name": "Стачек проспект, 96",
        "rubrics": "Аптеки,Доставка лекарств,Средства гигиены,Медицинские приборы,БАДы"
      },
      "geometry": {
        "type": "Point",
        "coordinates": [
          30.26148,
          59.866299
        ]
      }
    },
    {
      "type": "Feature",
      "properties": {
        "id": "5348552840886941",
        "name": "Алоэ, аптека",
        "address_name": "Стачек проспект, 92 к1",
        "rubrics": "Аптеки,Доставка лекарств"
      },
      "geometry": {
        "type": "Point",
        "coordinates": [
          30.263549,
          59.866709
        ]
      }
    },
    {
      "type": "Feature",
      "properties": {
        "id": "70000001069298068",
        "name": "Аптека плюс",
        "address_name": "Стачек проспект, 75",
        "rubrics": "Аптеки"
      },
      "geometry": {
        "type": "Point",
        "coordinates": [
          30.259859,
          59.867848
        ]
      }
    },
    {
      "type": "Feature",
      "properties": {
        "id": "5348552838480869",
        "name": "Озерки, аптека",
        "address_name": "Кронштадтская улица, 22",
        "rubrics": "Аптеки,Доставка лекарств"
      },
      "geometry": {
        "type": "Point",
        "coordinates": [
          30.257626,
          59.868408
        ]
      }
    },
    {
      "type": "Feature",
      "properties": {
        "id": "70000001081106607",
        "name": "Здравсити, аптека",
        "address_name": "Стачек проспект, 73",
        "rubrics": "Аптеки,Доставка лекарств"
      },
      "geometry": {
        "type": "Point",
        "coordinates": [
          30.259694,
          59.86842
        ]
      }
    },
    {
      "type": "Feature",
      "properties": {
        "id": "70000001060453145",
        "name": "Горздрав, аптека",
        "address_name": "улица Васи Алексеева, 4 ст1",
        "rubrics": "Аптеки"
      },
      "geometry": {
        "type": "Point",
        "coordinates": [
          30.264749,
          59.880393
        ]
      }
    },
    {
      "type": "Feature",
      "properties": {
        "id": "70000001027037679",
        "name": "Озерки, аптека",
        "address_name": "Стачек проспект, 47 лит Е",
        "rubrics": "Аптеки,Средства гигиены,Медицинские приборы,БАДы"
      },
      "geometry": {
        "type": "Point",
        "coordinates": [
          30.260667,
          59.880555
        ]
      }
    },
    {
      "type": "Feature",
      "properties": {
        "id": "70000001089491918",
        "name": "Апрель, аптека",
        "address_name": "Краснопутиловская улица, 34",
        "rubrics": "Аптеки"
      },
      "geometry": {
        "type": "Point",
        "coordinates": [
          30.274084,
          59.86851
        ]
      }
    },
    {
      "type": "Feature",
      "properties": {
        "id": "70000001094564874",
        "name": "Здравсити, аптека",
        "address_name": "Стачек проспект, 96",
        "rubrics": "Аптеки,БАДы,Медицинские расходные материалы,Доставка лекарств,Медицинские приборы"
      },
      "geometry": {
        "type": "Point",
        "coordinates": [
          30.261618,
          59.865835
        ]
      }
    },
    {
      "type": "Feature",
      "properties": {
        "id": "70000001093446127",
        "name": "Столички, социальная аптека",
        "address_name": "Автовская улица, 20",
        "rubrics": "Аптеки,БАДы,Медицинские приборы,Средства гигиены"
      },
      "geometry": {
        "type": "Point",
        "coordinates": [
          30.271503,
          59.870291
        ]
      }
    },
    {
      "type": "Feature",
      "properties": {
        "id": "70000001024118361",
        "name": "Невис, аптека",
        "address_name": "улица Зины Портновой, 1/3",
        "rubrics": "Аптеки,Доставка лекарств"
      },
      "geometry": {
        "type": "Point",
        "coordinates": [
          30.255933,
          59.856744
        ]
      }
    },
    {
      "type": "Feature",
      "properties": {
        "id": "70000001102960223",
        "name": "Здравсити, аптека",
        "address_name": "улица Маршала Говорова, 14",
        "rubrics": "Аптеки"
      },
      "geometry": {
        "type": "Point",
        "coordinates": [
          30.267467,
          59.879918
        ]
      }
    },
    {
      "type": "Feature",
      "properties": {
        "id": "70000001081685999",
        "name": "Алоэ, аптека",
        "address_name": "Краснопутиловская улица, 55",
        "rubrics": "Аптеки"
      },
      "geometry": {
        "type": "Point",
        "coordinates": [
          30.274838,
          59.867484
        ]
      }
    },
    {
      "type": "Feature",
      "properties": {
        "id": "5348552838503968",
        "name": "Петербургские аптеки, аптека №175",
        "address_name": "улица Генерала Симоняка, 9",
        "rubrics": "Аптеки,Средства гигиены,Медицинские приборы"
      },
      "geometry": {
        "type": "Point",
        "coordinates": [
          30.202686,
          59.830092
        ]
      }
    },
    {
      "type": "Feature",
      "properties": {
        "id": "70000001036871248",
        "name": "Планета здоровья, аптека готовых лекарственных форм",
        "address_name": "проспект Маршала Жукова, 54 к1",
        "rubrics": "Аптеки,БАДы,Фитопродукция,Средства гигиены,Доставка лекарств"
      },
      "geometry": {
        "type": "Point",
        "coordinates": [
          30.207336,
          59.841312
        ]
      }
    },
    {
      "type": "Feature",
      "properties": {
        "id": "70000001077154087",
        "name": "Алоэ, аптека",
        "address_name": "проспект Ветеранов, 114 к4",
        "rubrics": "Аптеки,Доставка лекарств"
      },
      "geometry": {
        "type": "Point",
        "coordinates": [
          30.195283,
          59.832436
        ]
      }
    },
    {
      "type": "Feature",
      "properties": {
        "id": "5348552838484778",
        "name": "Фиалка, аптека",
        "address_name": "проспект Ветеранов, 109",
        "rubrics": "Аптеки,Доставка лекарств,Медицинские приборы,БАДы,Средства гигиены"
      },
      "geometry": {
        "type": "Point",
        "coordinates": [
          30.1992,
          59.83346
        ]
      }
    },
    {
      "type": "Feature",
      "properties": {
        "id": "70000001035593723",
        "name": "Озерки, аптека",
        "address_name": "проспект Ветеранов, 108",
        "rubrics": "Аптеки,Средства гигиены,БАДы,Медицинские приборы,Медицинские расходные материалы"
      },
      "geometry": {
        "type": "Point",
        "coordinates": [
          30.205264,
          59.832816
        ]
      }
    },
    {
      "type": "Feature",
      "properties": {
        "id": "70000001084484079",
        "name": "Аптека плюс",
        "address_name": "проспект Ветеранов, 110",
        "rubrics": "Аптеки"
      },
      "geometry": {
        "type": "Point",
        "coordinates": [
          30.202342,
          59.832764
        ]
      }
    },
    {
      "type": "Feature",
      "properties": {
        "id": "70000001068864532",
        "name": "Невис, аптека",
        "address_name": "проспект Маршала Жукова, 60в",
        "rubrics": "Аптеки,Оптика,Доставка лекарств,БАДы,Средства гигиены"
      },
      "geometry": {
        "type": "Point",
        "coordinates": [
          30.205264,
          59.838736
        ]
      }
    },
    {
      "type": "Feature",
      "properties": {
        "id": "70000001031744946",
        "name": "Вита Экспресс, аптека",
        "address_name": "проспект Ветеранов, 109",
        "rubrics": "Аптеки,Средства гигиены,Фитопродукция,Медицинские приборы,Доставка лекарств"
      },
      "geometry": {
        "type": "Point",
        "coordinates": [
          30.198151,
          59.833441
        ]
      }
    },
    {
      "type": "Feature",
      "properties": {
        "id": "70000001106118335",
        "name": "Столички, социальная аптека",
        "address_name": "проспект Ветеранов, 108 к1",
        "rubrics": "Аптеки"
      },
      "geometry": {
        "type": "Point",
        "coordinates": [
          30.204822,
          59.83227
        ]
      }
    },
    {
      "type": "Feature",
      "properties": {
        "id": "70000001087546678",
        "name": "Озерки, аптека",
        "address_name": "проспект Ветеранов, 101",
        "rubrics": "Аптеки,БАДы,Медицинские приборы,Средства гигиены,Медицинские расходные материалы"
      },
      "geometry": {
        "type": "Point",
        "coordinates": [
          30.204558,
          59.833974
        ]
      }
    },
    {
      "type": "Feature",
      "properties": {
        "id": "70000001094725316",
        "name": "Здравсити, аптека",
        "address_name": "улица Генерала Симоняка, 14",
        "rubrics": "Аптеки,Доставка лекарств,Медицинские расходные материалы,Медицинские приборы,БАДы"
      },
      "geometry": {
        "type": "Point",
        "coordinates": [
          30.205098,
          59.827065
        ]
      }
    },
    {
      "type": "Feature",
      "properties": {
        "id": "70000001046427853",
        "name": "Столички, социальная аптека",
        "address_name": "проспект Ветеранов, 105",
        "rubrics": "Аптеки,Медицинские приборы,БАДы,Ортопедические товары,Средства гигиены"
      },
      "geometry": {
        "type": "Point",
        "coordinates": [
          30.201001,
          59.833491
        ]
      }
    },
    {
      "type": "Feature",
      "properties": {
        "id": "70000001093773128",
        "name": "Аптека плюс",
        "address_name": "проспект Маршала Жукова, 76 к1",
        "rubrics": "Аптеки"
      },
      "geometry": {
        "type": "Point",
        "coordinates": [
          30.190233,
          59.827852
        ]
      }
    },
    {
      "type": "Feature",
      "properties": {
        "id": "5348552838503972",
        "name": "Петербургские аптеки, аптека №242",
        "address_name": "Ленинский проспект, 118",
        "rubrics": "Аптеки,Изготовление лекарств на заказ"
      },
      "geometry": {
        "type": "Point",
        "coordinates": [
          30.253343,
          59.852322
        ]
      }
    },
    {
      "type": "Feature",
      "properties": {
        "id": "70000001054623757",
        "name": "Сити-фарм, аптека",
        "address_name": "проспект Ветеранов, 69",
        "rubrics": "Аптеки,Медицинские приборы,БАДы"
      },
      "geometry": {
        "type": "Point",
        "coordinates": [
          30.231469,
          59.838099
        ]
      }
    },
    {
      "type": "Feature",
      "properties": {
        "id": "70000001017816206",
        "name": "Планета здоровья, аптека готовых лекарственных форм",
        "address_name": "бульвар Новаторов, 112",
        "rubrics": "Аптеки,Доставка лекарств"
      },
      "geometry": {
        "type": "Point",
        "coordinates": [
          30.249488,
          59.841665
        ]
      }
    },
    {
      "type": "Feature",
      "properties": {
        "id": "70000001082655701",
        "name": "Здоров.ру, аптека",
        "address_name": "проспект Ветеранов, 36 к2",
        "rubrics": "Аптеки,Доставка лекарств"
      },
      "geometry": {
        "type": "Point",
        "coordinates": [
          30.247755,
          59.842831
        ]
      }
    },
    {
      "type": "Feature",
      "properties": {
        "id": "70000001054940493",
        "name": "Апрель, аптека",
        "address_name": "проспект Ветеранов, 95",
        "rubrics": "Аптеки,Детское питание,Медицинские приборы,Средства гигиены,Доставка лекарств"
      },
      "geometry": {
        "type": "Point",
        "coordinates": [
          30.208323,
          59.833621
        ]
      }
    },
    {
      "type": "Feature",
      "properties": {
        "id": "5348552840722057",
        "name": "Петербургские аптеки, аптека №206",
        "address_name": "проспект Ветеранов, 78",
        "rubrics": "Аптеки,Изготовление лекарств на заказ,Медицинские приборы,Средства гигиены,БАДы"
      },
      "geometry": {
        "type": "Point",
        "coordinates": [
          30.213293,
          59.832957
        ]
      }
    },
    {
      "type": "Feature",
      "properties": {
        "id": "5348552838483740",
        "name": "Озерки, аптека",
        "address_name": "проспект Ветеранов, 53",
        "rubrics": "Аптеки,Медицинские приборы,БАДы,Средства гигиены"
      },
      "geometry": {
        "type": "Point",
        "coordinates": [
          30.238166,
          59.840554
        ]
      }
    },
    {
      "type": "Feature",
      "properties": {
        "id": "5348552838480868",
        "name": "Озерки, аптека",
        "address_name": "Дачный проспект, 17 к4",
        "rubrics": "Аптеки,Средства гигиены,БАДы,Медицинские приборы"
      },
      "geometry": {
        "type": "Point",
        "coordinates": [
          30.252141,
          59.842725
        ]
      }
    },
    {
      "type": "Feature",
      "properties": {
        "id": "70000001047021108",
        "name": "Алоэ, аптека",
        "address_name": "бульвар Новаторов, 98а",
        "rubrics": "Аптеки,Доставка лекарств"
      },
      "geometry": {
        "type": "Point",
        "coordinates": [
          30.253379,
          59.841344
        ]
      }
    },
    {
      "type": "Feature",
      "properties": {
        "id": "70000001037702695",
        "name": "Столички, социальная аптека",
        "address_name": "проспект Ветеранов, 23",
        "rubrics": "Аптеки"
      },
      "geometry": {
        "type": "Point",
        "coordinates": [
          30.244279,
          59.84291
        ]
      }
    },
    {
      "type": "Feature",
      "properties": {
        "id": "5348552838484783",
        "name": "Фиалка, аптека",
        "address_name": "Ленинский проспект, 104",
        "rubrics": "Аптеки,Медицинские приборы,Доставка лекарств,Средства гигиены,БАДы"
      },
      "geometry": {
        "type": "Point",
        "coordinates": [
          30.228229,
          59.85245
        ]
      }
    },
    {
      "type": "Feature",
      "properties": {
        "id": "70000001103402175",
        "name": "Озерки, аптека",
        "address_name": "проспект Ветеранов, 87",
        "rubrics": "Аптеки"
      },
      "geometry": {
        "type": "Point",
        "coordinates": [
          30.219422,
          59.834381
        ]
      }
    },
    {
      "type": "Feature",
      "properties": {
        "id": "70000001059070436",
        "name": "Аптекаплюс",
        "address_name": "улица Лёни Голикова, 53",
        "rubrics": "Аптеки"
      },
      "geometry": {
        "type": "Point",
        "coordinates": [
          30.237125,
          59.8405
        ]
      }
    },
    {
      "type": "Feature",
      "properties": {
        "id": "5348552840722056",
        "name": "Петербургские аптеки, Аптека №147",
        "address_name": "проспект Ветеранов, 43",
        "rubrics": "Аптеки,Медицинские приборы,Средства гигиены"
      },
      "geometry": {
        "type": "Point",
        "coordinates": [
          30.242495,
          59.842373
        ]
      }
    },
    {
      "type": "Feature",
      "properties": {
        "id": "70000001032722123",
        "name": "Вита Экспресс, аптека",
        "address_name": "улица Лёни Голикова, 53",
        "rubrics": "Аптеки,БАДы,Доставка лекарств"
      },
      "geometry": {
        "type": "Point",
        "coordinates": [
          30.236937,
          59.840632
        ]
      }
    },
    {
      "type": "Feature",
      "properties": {
        "id": "70000001060622899",
        "name": "Столички, социальная аптека",
        "address_name": "Ленинский проспект, 108 к1",
        "rubrics": "Аптеки,Средства гигиены,БАДы,Медицинские приборы"
      },
      "geometry": {
        "type": "Point",
        "coordinates": [
          30.232623,
          59.852506
        ]
      }
    },
    {
      "type": "Feature",
      "properties": {
        "id": "70000001087521603",
        "name": "Озерки, аптека",
        "address_name": "Ленинский проспект, 111 к2",
        "rubrics": "Аптеки,Доставка лекарств"
      },
      "geometry": {
        "type": "Point",
        "coordinates": [
          30.244161,
          59.850611
        ]
      }
    },
    {
      "type": "Feature",
      "properties": {
        "id": "70000001051173301",
        "name": "Столички, социальная аптека",
        "address_name": "проспект Ветеранов, 76",
        "rubrics": "Аптеки"
      },
      "geometry": {
        "type": "Point",
        "coordinates": [
          30.219691,
          59.833673
        ]
      }
    },
    {
      "type": "Feature",
      "properties": {
        "id": "70000001041484939",
        "name": "Магнит Аптека",
        "address_name": "Ленинский проспект, 118 к1",
        "rubrics": "Аптеки,БАДы"
      },
      "geometry": {
        "type": "Point",
        "coordinates": [
          30.249925,
          59.852411
        ]
      }
    },
    {
      "type": "Feature",
      "properties": {
        "id": "70000001099937031",
        "name": "Озерки, аптека",
        "address_name": "бульвар Новаторов, 108",
        "rubrics": "Аптеки,Доставка лекарств"
      },
      "geometry": {
        "type": "Point",
        "coordinates": [
          30.250377,
          59.841526
        ]
      }
    },
    {
      "type": "Feature",
      "properties": {
        "id": "70000001030425341",
        "name": "Озерки, аптека",
        "address_name": "проспект Ветеранов, 78",
        "rubrics": "Аптеки,Средства гигиены,БАДы,Медицинские приборы"
      },
      "geometry": {
        "type": "Point",
        "coordinates": [
          30.215289,
          59.832976
        ]
      }
    },
    {
      "type": "Feature",
      "properties": {
        "id": "70000001079704262",
        "name": "Озерки, аптека",
        "address_name": "Ленинский проспект, 118",
        "rubrics": "Аптеки,БАДы,Средства гигиены,Медицинские приборы"
      },
      "geometry": {
        "type": "Point",
        "coordinates": [
          30.251721,
          59.852325
        ]
      }
    },
    {
      "type": "Feature",
      "properties": {
        "id": "70000001100166781",
        "name": "Горздрав, аптека",
        "address_name": "проспект Ветеранов, 78",
        "rubrics": "Аптеки"
      },
      "geometry": {
        "type": "Point",
        "coordinates": [
          30.217757,
          59.833191
        ]
      }
    },
    {
      "type": "Feature",
      "properties": {
        "id": "70000001032721689",
        "name": "Вита Экспресс, аптека",
        "address_name": "проспект Ветеранов, 50",
        "rubrics": "Аптеки,БАДы,Средства гигиены,Медицинские приборы,Доставка лекарств"
      },
      "geometry": {
        "type": "Point",
        "coordinates": [
          30.24191,
          59.840905
        ]
      }
    },
    {
      "type": "Feature",
      "properties": {
        "id": "70000001077154091",
        "name": "Алоэ, аптека",
        "address_name": "Народного Ополчения проспект, 149 ст1",
        "rubrics": "Аптеки,Доставка лекарств"
      },
      "geometry": {
        "type": "Point",
        "coordinates": [
          30.246752,
          59.830952
        ]
      }
    },
    {
      "type": "Feature",
      "properties": {
        "id": "70000001040950466",
        "name": "Магнит Аптека",
        "address_name": "Дачный проспект, 5 к10",
        "rubrics": "Аптеки"
      },
      "geometry": {
        "type": "Point",
        "coordinates": [
          30.242525,
          59.848175
        ]
      }
    },
    {
      "type": "Feature",
      "properties": {
        "id": "70000001082702709",
        "name": "Озерки, аптека",
        "address_name": "улица Лёни Голикова, 27 к3",
        "rubrics": "Аптеки"
      },
      "geometry": {
        "type": "Point",
        "coordinates": [
          30.229048,
          59.843581
        ]
      }
    },
    {
      "type": "Feature",
      "properties": {
        "id": "70000001101574225",
        "name": "Алоэ, аптека",
        "address_name": "Ленинский проспект, 103",
        "rubrics": "Аптеки,Доставка лекарств"
      },
      "geometry": {
        "type": "Point",
        "coordinates": [
          30.230368,
          59.851103
        ]
      }
    },
    {
      "type": "Feature",
      "properties": {
        "id": "70000001029449581",
        "name": "Леноблфарм, аптека",
        "address_name": "улица Солдата Корзуна, 40",
        "rubrics": "Аптеки,Доставка лекарств"
      },
      "geometry": {
        "type": "Point",
        "coordinates": [
          30.220671,
          59.830897
        ]
      }
    },
    {
      "type": "Feature",
      "properties": {
        "id": "70000001089128938",
        "name": "Магнит Аптека",
        "address_name": "Ленинский проспект, 106 к3",
        "rubrics": "Аптеки,Медицинские приборы"
      },
      "geometry": {
        "type": "Point",
        "coordinates": [
          30.230405,
          59.852379
        ]
      }
    },
    {
      "type": "Feature",
      "properties": {
        "id": "70000001076562460",
        "name": "Невис, аптека",
        "address_name": "бульвар Новаторов, 73",
        "rubrics": "Аптеки,Доставка лекарств"
      },
      "geometry": {
        "type": "Point",
        "coordinates": [
          30.252203,
          59.842255
        ]
      }
    },
    {
      "type": "Feature",
      "properties": {
        "id": "70000001082679893",
        "name": "Столички, социальная аптека",
        "address_name": "проспект Ветеранов, 73",
        "rubrics": "Аптеки,БАДы,Медицинские приборы"
      },
      "geometry": {
        "type": "Point",
        "coordinates": [
          30.230611,
          59.837846
        ]
      }
    },
    {
      "type": "Feature",
      "properties": {
        "id": "70000001057537311",
        "name": "Нушфарм, аптека",
        "address_name": "Ленинский проспект, 114",
        "rubrics": "Аптеки"
      },
      "geometry": {
        "type": "Point",
        "coordinates": [
          30.245668,
          59.852489
        ]
      }
    },
    {
      "type": "Feature",
      "properties": {
        "id": "70000001029815464",
        "name": "Невис, аптека",
        "address_name": "улица Лёни Голикова, 25 к2",
        "rubrics": "Аптеки,Оптика,Доставка лекарств,Средства гигиены"
      },
      "geometry": {
        "type": "Point",
        "coordinates": [
          30.231524,
          59.844289
        ]
      }
    },
    {
      "type": "Feature",
      "properties": {
        "id": "70000001078947910",
        "name": "Интермедфарм, аптека",
        "address_name": "проспект Ветеранов, 89 к4",
        "rubrics": "Аптеки,Средства гигиены"
      },
      "geometry": {
        "type": "Point",
        "coordinates": [
          30.214083,
          59.837619
        ]
      }
    },
    {
      "type": "Feature",
      "properties": {
        "id": "70000001100166854",
        "name": "Горздрав, аптека",
        "address_name": "улица Лёни Голикова, 53",
        "rubrics": "Аптеки"
      },
      "geometry": {
        "type": "Point",
        "coordinates": [
          30.237265,
          59.840238
        ]
      }
    },
    {
      "type": "Feature",
      "properties": {
        "id": "70000001059408127",
        "name": "Невис, аптека",
        "address_name": "проспект Ветеранов, 87",
        "rubrics": "Аптеки,Оптика,Средства гигиены,Доставка лекарств"
      },
      "geometry": {
        "type": "Point",
        "coordinates": [
          30.221669,
          59.835085
        ]
      }
    },
    {
      "type": "Feature",
      "properties": {
        "id": "70000001076201055",
        "name": "Фармадом, аптека",
        "address_name": "проспект Ветеранов, 56",
        "rubrics": "Аптеки"
      },
      "geometry": {
        "type": "Point",
        "coordinates": [
          30.237943,
          59.838005
        ]
      }
    },
    {
      "type": "Feature",
      "properties": {
        "id": "70000001023562659",
        "name": "Леноблфарм, аптека",
        "address_name": "улица Бурцева, 23 лит А",
        "rubrics": "Аптеки,Средства гигиены"
      },
      "geometry": {
        "type": "Point",
        "coordinates": [
          30.214003,
          59.83567
        ]
      }
    },
    {
      "type": "Feature",
      "properties": {
        "id": "70000001034178141",
        "name": "Аптека №145",
        "address_name": "проспект Ветеранов, 89",
        "rubrics": "Аптеки,Средства гигиены,Доставка лекарств"
      },
      "geometry": {
        "type": "Point",
        "coordinates": [
          30.21466,
          59.834203
        ]
      }
    },
    {
      "type": "Feature",
      "properties": {
        "id": "70000001043120679",
        "name": "Лека-фарм, аптека",
        "address_name": "Стойкости, 8 лит В",
        "rubrics": "Аптеки"
      },
      "geometry": {
        "type": "Point",
        "coordinates": [
          30.215524,
          59.827691
        ]
      }
    },
    {
      "type": "Feature",
      "properties": {
        "id": "70000001083695650",
        "name": "Здравсити, аптека",
        "address_name": "Дачный проспект, 12",
        "rubrics": "Аптеки,Доставка лекарств,БАДы,Медицинские расходные материалы,Медицинские приборы"
      },
      "geometry": {
        "type": "Point",
        "coordinates": [
          30.251082,
          59.844761
        ]
      }
    },
    {
      "type": "Feature",
      "properties": {
        "id": "70000001102841546",
        "name": "Бюджетная, аптека",
        "address_name": "улица Солдата Корзуна, 34",
        "rubrics": "Аптеки,БАДы,Средства гигиены"
      },
      "geometry": {
        "type": "Point",
        "coordinates": [
          30.219124,
          59.832813
        ]
      }
    },
    {
      "type": "Feature",
      "properties": {
        "id": "70000001047164294",
        "name": "Планета здоровья, аптека готовых лекарственных форм",
        "address_name": "Ленинский проспект, 119",
        "rubrics": "Аптеки,Детское питание,БАДы,Фитопродукция,Средства гигиены"
      },
      "geometry": {
        "type": "Point",
        "coordinates": [
          30.257384,
          59.851472
        ]
      }
    },
    {
      "type": "Feature",
      "properties": {
        "id": "5348552838503971",
        "name": "Петербургские аптеки, аптека №214",
        "address_name": "Ленинский проспект, 131",
        "rubrics": "Аптеки,Изготовление лекарств на заказ,Средства гигиены,Медицинские приборы"
      },
      "geometry": {
        "type": "Point",
        "coordinates": [
          30.273053,
          59.851385
        ]
      }
    },
    {
      "type": "Feature",
      "properties": {
        "id": "70000001053108566",
        "name": "Планета здоровья, аптека готовых лекарственных форм",
        "address_name": "бульвар Новаторов, 13",
        "rubrics": "Аптеки,БАДы,Медицинские приборы,Доставка лекарств"
      },
      "geometry": {
        "type": "Point",
        "coordinates": [
          30.267263,
          59.849734
        ]
      }
    },
    {
      "type": "Feature",
      "properties": {
        "id": "5348552838480867",
        "name": "Озерки, аптека",
        "address_name": "бульвар Новаторов, 8",
        "rubrics": "Аптеки,Средства гигиены,БАДы,Медицинские приборы"
      },
      "geometry": {
        "type": "Point",
        "coordinates": [
          30.269205,
          59.850314
        ]
      }
    },
    {
      "type": "Feature",
      "properties": {
        "id": "70000001099376163",
        "name": "Живика, аптека",
        "address_name": "Ленинский проспект, 118",
        "rubrics": "Аптеки"
      },
      "geometry": {
        "type": "Point",
        "coordinates": [
          30.255306,
          59.852319
        ]
      }
    },
    {
      "type": "Feature",
      "properties": {
        "id": "70000001058841367",
        "name": "Столички, социальная аптека",
        "address_name": "Ленинский проспект, 128",
        "rubrics": "Аптеки,Ортопедические товары"
      },
      "geometry": {
        "type": "Point",
        "coordinates": [
          30.265856,
          59.852293
        ]
      }
    },
    {
      "type": "Feature",
      "properties": {
        "id": "70000001034612194",
        "name": "Горздрав, аптека",
        "address_name": "бульвар Новаторов, 8",
        "rubrics": "Аптеки,Медицинские приборы,Оптика,Средства гигиены"
      },
      "geometry": {
        "type": "Point",
        "coordinates": [
          30.269206,
          59.850366
        ]
      }
    },
    {
      "type": "Feature",
      "properties": {
        "id": "70000001087416307",
        "name": "Озерки, аптека",
        "address_name": "Дачный проспект, 19 к1",
        "rubrics": "Аптеки,Доставка лекарств"
      },
      "geometry": {
        "type": "Point",
        "coordinates": [
          30.255794,
          59.840854
        ]
      }
    },
    {
      "type": "Feature",
      "properties": {
        "id": "70000001036936513",
        "name": "Горздрав, аптечный пункт №142",
        "address_name": "Ленинский проспект, 123а",
        "rubrics": "Аптеки,БАДы,Медицинские приборы,Средства гигиены,Доставка лекарств"
      },
      "geometry": {
        "type": "Point",
        "coordinates": [
          30.262053,
          59.851535
        ]
      }
    },
    {
      "type": "Feature",
      "properties": {
        "id": "70000001089760324",
        "name": "Озерки, аптека",
        "address_name": "Ленинский проспект, 118",
        "rubrics": "Аптеки,БАДы,Медицинские приборы,Средства гигиены"
      },
      "geometry": {
        "type": "Point",
        "coordinates": [
          30.254801,
          59.85232
        ]
      }
    },
    {
      "type": "Feature",
      "properties": {
        "id": "70000001103027542",
        "name": "Здоров.ру, аптека",
        "address_name": "бульвар Новаторов, 9",
        "rubrics": "Аптеки"
      },
      "geometry": {
        "type": "Point",
        "coordinates": [
          30.26714,
          59.852627
        ]
      }
    },
    {
      "type": "Feature",
      "properties": {
        "id": "70000001063258223",
        "name": "Апрель, аптека",
        "address_name": "Дачный проспект, 33 к1",
        "rubrics": "Аптеки,Доставка лекарств,Медицинские приборы,Фитопродукция,Товары для новорождённых"
      },
      "geometry": {
        "type": "Point",
        "coordinates": [
          30.262637,
          59.837308
        ]
      }
    },
    {
      "type": "Feature",
      "properties": {
        "id": "70000001105091505",
        "name": "Столички, социальная аптека",
        "address_name": "бульвар Новаторов, 67 к2",
        "rubrics": "Аптеки"
      },
      "geometry": {
        "type": "Point",
        "coordinates": [
          30.26006,
          59.842972
        ]
      }
    },
    {
      "type": "Feature",
      "properties": {
        "id": "70000001032658173",
        "name": "Невис, аптека",
        "address_name": "Народного Ополчения проспект, 10",
        "rubrics": "Аптеки,Оптика,Доставка лекарств"
      },
      "geometry": {
        "type": "Point",
        "coordinates": [
          30.281203,
          59.85081
        ]
      }
    },
    {
      "type": "Feature",
      "properties": {
        "id": "70000001060616128",
        "name": "Горздрав, аптека",
        "address_name": "Ленинский проспект, 117 лит А",
        "rubrics": "Аптеки,Доставка лекарств"
      },
      "geometry": {
        "type": "Point",
        "coordinates": [
          30.254009,
          59.851445
        ]
      }
    },
    {
      "type": "Feature",
      "properties": {
        "id": "70000001026551273",
        "name": "Будь Здоров!, аптека",
        "address_name": "улица Зины Портновой, 32",
        "rubrics": "Аптеки,Доставка лекарств,Медицинские приборы,БАДы,Средства гигиены"
      },
      "geometry": {
        "type": "Point",
        "coordinates": [
          30.256845,
          59.852314
        ]
      }
    },
    {
      "type": "Feature",
      "properties": {
        "id": "70000001046693584",
        "name": "Горздрав, аптека",
        "address_name": "Ленинский проспект, 130",
        "rubrics": "Аптеки,Средства гигиены,Медицинские приборы,БАДы"
      },
      "geometry": {
        "type": "Point",
        "coordinates": [
          30.269932,
          59.852257
        ]
      }
    },
    {
      "type": "Feature",
      "properties": {
        "id": "70000001066673462",
        "name": "36, 6, аптека",
        "address_name": "бульвар Новаторов, 11 к2 лит А",
        "rubrics": "Аптеки,Доставка лекарств"
      },
      "geometry": {
        "type": "Point",
        "coordinates": [
          30.268443,
          59.849716
        ]
      }
    },
    {
      "type": "Feature",
      "properties": {
        "id": "70000001035300973",
        "name": "Столички, социальная аптека",
        "address_name": "бульвар Новаторов, 11а",
        "rubrics": "Аптеки,Медицинские приборы,Ортопедические товары,Средства гигиены"
      },
      "geometry": {
        "type": "Point",
        "coordinates": [
          30.267381,
          59.850798
        ]
      }
    },
    {
      "type": "Feature",
      "properties": {
        "id": "70000001094564876",
        "name": "Здравсити, аптека",
        "address_name": "Дачный проспект, 19 к1",
        "rubrics": "Аптеки,БАДы,Медицинские расходные материалы,Доставка лекарств,Медицинские приборы"
      },
      "geometry": {
        "type": "Point",
        "coordinates": [
          30.256279,
          59.840603
        ]
      }
    },
    {
      "type": "Feature",
      "properties": {
        "id": "70000001091747699",
        "name": "Здравсити, аптека",
        "address_name": "Ленинский проспект, 128 к2",
        "rubrics": "Аптеки,Доставка лекарств,Медицинские расходные материалы"
      },
      "geometry": {
        "type": "Point",
        "coordinates": [
          30.268527,
          59.852576
        ]
      }
    },
    {
      "type": "Feature",
      "properties": {
        "id": "70000001103054594",
        "name": "Максавит, аптека",
        "address_name": "Ленинский проспект, 129 к6",
        "rubrics": "Аптеки"
      },
      "geometry": {
        "type": "Point",
        "coordinates": [
          30.271577,
          59.851467
        ]
      }
    },
    {
      "type": "Feature",
      "properties": {
        "id": "70000001044871991",
        "name": "Вита Экспресс, аптека",
        "address_name": "бульвар Новаторов, 6",
        "rubrics": "Аптеки,Медицинские приборы,Фитопродукция,БАДы,Доставка лекарств"
      },
      "geometry": {
        "type": "Point",
        "coordinates": [
          30.269466,
          59.852306
        ]
      }
    },
    {
      "type": "Feature",
      "properties": {
        "id": "5348552838486133",
        "name": "Невис, аптека",
        "address_name": "Народного Ополчения проспект, 115",
        "rubrics": "Аптеки,Оптика,Доставка лекарств"
      },
      "geometry": {
        "type": "Point",
        "coordinates": [
          30.26949,
          59.837986
        ]
      }
    },
    {
      "type": "Feature",
      "properties": {
        "id": "5348552839992117",
        "name": "Невис, аптека",
        "address_name": "Счастливая улица, 13",
        "rubrics": "Аптеки,Оптика,Доставка лекарств"
      },
      "geometry": {
        "type": "Point",
        "coordinates": [
          30.273631,
          59.844012
        ]
      }
    },
    {
      "type": "Feature",
      "properties": {
        "id": "70000001097250180",
        "name": "Здравсити, аптека",
        "address_name": "улица Зины Портновой, 32",
        "rubrics": "Аптеки,БАДы,Медицинские расходные материалы,Медицинские приборы,Доставка лекарств"
      },
      "geometry": {
        "type": "Point",
        "coordinates": [
          30.256673,
          59.852566
        ]
      }
    },
    {
      "type": "Feature",
      "properties": {
        "id": "70000001103428649",
        "name": "Фармсервис, аптека",
        "address_name": "Ленинский проспект, 130",
        "rubrics": "Аптеки"
      },
      "geometry": {
        "type": "Point",
        "coordinates": [
          30.270586,
          59.852256
        ]
      }
    },
    {
      "type": "Feature",
      "properties": {
        "id": "70000001109697457",
        "name": "Здравсити, аптека",
        "address_name": "Народного Ополчения проспект, 101",
        "rubrics": "Аптеки"
      },
      "geometry": {
        "type": "Point",
        "coordinates": [
          30.270899,
          59.838864
        ]
      }
    }
  ]
}