{"type": "FeatureCollection", "features": [{"type": "Feature", "properties": {"id": "70000001076233392", "name": "СПб Городская больница №14, центр спасения конечностей", "address_name": "улица Косинова, 19/9", "rubrics": "Больницы"}, "geometry": {"type": "Point", "coordinates": [30.271579, 59.895108]}}, {"type": "Feature", "properties": {"id": "5348552838554189", "name": "СПб Городская больница №14, городской центр по лечению гнойной инфекции", "address_name": "улица Косинова, 19", "rubrics": "Больницы"}, "geometry": {"type": "Point", "coordinates": [30.272034, 59.895528]}}, {"type": "Feature", "properties": {"id": "70000001094640309", "name": "СПб Городская больница №14, отделение платных услуг", "address_name": "улица Косинова, 19", "rubrics": "Больницы,Хирург,Терапевт,Эндокринолог,Ангиохирург,Медицинские анализы,Медицинская диагностика"}, "geometry": {"type": "Point", "coordinates": [30.272034, 59.895528]}}, {"type": "Feature", "properties": {"id": "70000001096433145", "name": "Медкомплекс", "address_name": "Промышленная улица, 14а", "rubrics": "Больницы"}, "geometry": {"type": "Point", "coordinates": [30.269161, 59.898062]}}, {"type": "Feature", "properties": {"id": "5348553838550695", "name": "АльфаМед, сеть медицинских центров", "address_name": "улица Маршала Казакова, 9 к1", "rubrics": "Больницы,Многопрофильные медицинские центры,Диетолог,Медицинская диагностика,ЛОР (отоларинголог),Гастроэнтеролог,Массажист,Флеболог,Эндокринолог,Дерматолог,Терапевт,Ведение беременности,Медицинские анализы,Невролог,Гинеколог,Уролог,Кардиолог,Процедурный кабинет,Пульмонолог"}, "geometry": {"type": "Point", "coordinates": [30.239888, 59.859953]}}, {"type": "Feature", "properties": {"id": "5348552840137942", "name": "Городская наркологическая больница, отделение медицинской реабилитации для лиц с наркологическими расстройствами №2", "address_name": "улица Маршала Говорова, 6/5", "rubrics": "Реабилитационные центры"}, "geometry": {"type": "Point", "coordinates": [30.26358, 59.875846]}}, {"type": "Feature", "properties": {"id": "5348552838557110", "name": "Наркологическая больница, наркологический кабинет Кировского района", "address_name": "Краснопутиловская улица, 4", "rubrics": "Диспансеры"}, "geometry": {"type": "Point", "coordinates": [30.260586, 59.87516]}}]}