{"type": "FeatureCollection", "features": [{"type": "Feature", "properties": {"id": "5348552840183341", "name": "Академия реставрации и дизайна", "address_name": "Морской Пехоты, 14", "rubrics": "Колледжи"}, "geometry": {"type": "Point", "coordinates": [30.23909, 59.86206]}}, {"type": "Feature", "properties": {"id": "5348552838687503", "name": "Колледж судостроения, информационных и прикладных технологий", "address_name": "Кронштадтская улица, 5", "rubrics": "Колледжи"}, "geometry": {"type": "Point", "coordinates": [30.254134, 59.873239]}}, {"type": "Feature", "properties": {"id": "5348552838643620", "name": "Медицинский колледж №1", "address_name": "улица Зайцева, 28", "rubrics": "Колледжи"}, "geometry": {"type": "Point", "coordinates": [30.272175, 59.879319]}}, {"type": "Feature", "properties": {"id": "5348552838688461", "name": "Колледж №1, колледж им. Н.А. Некрасова", "address_name": "улица Примакова, 10", "rubrics": "Колледжи"}, "geometry": {"type": "Point", "coordinates": [30.275851, 59.8691]}}, {"type": "Feature", "properties": {"id": "5348552840466297", "name": "Колледж судостроения, информационных и прикладных технологий", "address_name": "Кронштадтская улица, 15 лит А", "rubrics": "Колледжи"}, "geometry": {"type": "Point", "coordinates": [30.255923, 59.866256]}}, {"type": "Feature", "properties": {"id": "5348552839929148", "name": "Промышленно-Технологический Колледж им. Н.И. Путилова", "address_name": "улица Маршала Говорова, 18", "rubrics": "Колледжи"}, "geometry": {"type": "Point", "coordinates": [30.26879, 59.882698]}}, {"type": "Feature", "properties": {"id": "5348552840339878", "name": "Колледж водных ресурсов", "address_name": "Стойкости, 28 к2", "rubrics": "Колледжи"}, "geometry": {"type": "Point", "coordinates": [30.198839, 59.825538]}}, {"type": "Feature", "properties": {"id": "5348552838678233", "name": "Академия реставрации и дизайна", "address_name": "Стойкости, 30 к2", "rubrics": "Колледжи"}, "geometry": {"type": "Point", "coordinates": [30.195828, 59.826445]}}, {"type": "Feature", "properties": {"id": "5348552838589946", "name": "Морская техническая академия им. адмирала Д.Н. Сенявина", "address_name": "Народного Ополчения проспект, 189 к1", "rubrics": "Колледжи"}, "geometry": {"type": "Point", "coordinates": [30.208644, 59.824927]}}]}