{"type": "FeatureCollection", "features": [{"type": "Feature", "properties": {"id": "70000001037152089", "name": "Cosa Nostra Lounge", "address_name": "Промышленная улица, 6", "rubrics": "Центры паровых коктейлей"}, "geometry": {"type": "Point", "coordinates": [30.27347, 59.899274]}}, {"type": "Feature", "properties": {"id": "70000001040912485", "name": "Cosa Nostra.Kirovskiy", "address_name": "Стачек проспект, 72", "rubrics": "Центры паровых коктейлей"}, "geometry": {"type": "Point", "coordinates": [30.263218, 59.879312]}}, {"type": "Feature", "properties": {"id": "70000001094991759", "name": "Бездельники, лаундж-бар", "address_name": "Краснопутиловская улица, 9 к1", "rubrics": "Центры паровых коктейлей"}, "geometry": {"type": "Point", "coordinates": [30.263729, 59.872922]}}, {"type": "Feature", "properties": {"id": "70000001027898802", "name": "Smoke palace, центр паровых коктейлей", "address_name": "Автовская улица, 35 лит А", "rubrics": "Центры паровых коктейлей"}, "geometry": {"type": "Point", "coordinates": [30.279041, 59.877202]}}, {"type": "Feature", "properties": {"id": "70000001052014185", "name": "Clan 19, лаундж-бар", "address_name": "улица Генерала Симоняка, 9", "rubrics": "Центры паровых коктейлей"}, "geometry": {"type": "Point", "coordinates": [30.202779, 59.830002]}}, {"type": "Feature", "properties": {"id": "70000001061558919", "name": "Izzy hook lounge, лаундж-бар", "address_name": "Народного Ополчения проспект, 149 ст1", "rubrics": "Центры паровых коктейлей"}, "geometry": {"type": "Point", "coordinates": [30.246709, 59.830942]}}, {"type": "Feature", "properties": {"id": "70000001075270303", "name": "Clan 19, лаундж-бар", "address_name": "улица Лёни Голикова, 56", "rubrics": "Центры паровых коктейлей"}, "geometry": {"type": "Point", "coordinates": [30.237736, 59.840835]}}, {"type": "Feature", "properties": {"id": "70000001102931138", "name": "#turka, центры паровых коктейлей", "address_name": "Ленинский проспект, 133", "rubrics": "Центры паровых коктейлей,Антикафе"}, "geometry": {"type": "Point", "coordinates": [30.274297, 59.851506]}}, {"type": "Feature", "properties": {"id": "70000001032432531", "name": "Безумный Лесник", "address_name": "Ленинский проспект, 140 лит А", "rubrics": "Центры паровых коктейлей,Антикафе"}, "geometry": {"type": "Point", "coordinates": [30.284464, 59.852319]}}, {"type": "Feature", "properties": {"id": "70000001039835318", "name": "Eden, лаундж-бар", "address_name": "Ленинский проспект, 121", "rubrics": "Центры паровых коктейлей"}, "geometry": {"type": "Point", "coordinates": [30.260857, 59.85151]}}, {"type": "Feature", "properties": {"id": "70000001027357566", "name": "ЛеСмок, лаундж-бар", "address_name": "Народного Ополчения проспект, 10", "rubrics": "Центры паровых коктейлей,Антикафе"}, "geometry": {"type": "Point", "coordinates": [30.281374, 59.851196]}}]}