{"type": "FeatureCollection", "features": [{"type": "Feature", "properties": {"id": "5348552840052562", "name": "Rc club, сквош-клуб", "address_name": "улица Маршала Говорова, 35 к4", "rubrics": "Фитнес-клубы,Сквош-корты,Спортивные секции,Центры йоги"}, "geometry": {"type": "Point", "coordinates": [30.279533, 59.889103]}}, {"type": "Feature", "properties": {"id": "70000001017537322", "name": "Т-35, бильярдный клуб", "address_name": "улица Маршала Казакова, 13 к1", "rubrics": "Бильярдные залы"}, "geometry": {"type": "Point", "coordinates": [30.237026, 59.85994]}}, {"type": "Feature", "properties": {"id": "70000001028869934", "name": "Школа единоборств Невский, клуб", "address_name": "улица Зайцева, 27", "rubrics": "Спортивные секции"}, "geometry": {"type": "Point", "coordinates": [30.271273, 59.875986]}}, {"type": "Feature", "properties": {"id": "5348552840882086", "name": "Бильярдный зал", "address_name": "Автовская улица, 35 лит А", "rubrics": "Бильярдные залы"}, "geometry": {"type": "Point", "coordinates": [30.279041, 59.877202]}}, {"type": "Feature", "properties": {"id": "70000001052422242", "name": "Vape Club, магазин электронных сигарет", "address_name": "Стачек проспект, 75а", "rubrics": "Электронные сигареты"}, "geometry": {"type": "Point", "coordinates": [30.260138, 59.867721]}}, {"type": "Feature", "properties": {"id": "70000001036563576", "name": "Маршал, бильярдный клуб", "address_name": "проспект Маршала Жукова, 60 к1 лит В", "rubrics": "Бильярдные залы,Бары"}, "geometry": {"type": "Point", "coordinates": [30.204253, 59.838101]}}, {"type": "Feature", "properties": {"id": "70000001040854144", "name": "Smartparts. Club, интернет-магазин автозапчастей", "address_name": "Народного Ополчения проспект, 201", "rubrics": "Пункты выдачи интернет-заказов"}, "geometry": {"type": "Point", "coordinates": [30.190877, 59.823998]}}, {"type": "Feature", "properties": {"id": "70000001087733937", "name": "mr. Magic club, спортивный клуб", "address_name": "проспект Маршала Жукова, 76 к1", "rubrics": "Спортивные секции"}, "geometry": {"type": "Point", "coordinates": [30.190233, 59.827852]}}, {"type": "Feature", "properties": {"id": "5348552840400614", "name": "Shot, бильярдный клуб-бар", "address_name": "улица Бурцева, 23 лит А", "rubrics": "Бильярдные залы,Бары"}, "geometry": {"type": "Point", "coordinates": [30.213818, 59.83593]}}, {"type": "Feature", "properties": {"id": "5348552838608232", "name": "Стиль-клуб, спортивный центр", "address_name": "улица Лёни Голикова, 82", "rubrics": "Фитнес-клубы,Тренажёрные залы,Теннисные корты"}, "geometry": {"type": "Point", "coordinates": [30.246428, 59.836659]}}, {"type": "Feature", "properties": {"id": "5348552838642536", "name": "Подростково-молодёжный клуб им. Л. Голикова", "address_name": "проспект Ветеранов, 53/56", "rubrics": "Культурно-досуговые центры,Обучение танцам,Художественные курсы,Спортивные секции,Актёрские курсы"}, "geometry": {"type": "Point", "coordinates": [30.238336, 59.841148]}}, {"type": "Feature", "properties": {"id": "5348552839838750", "name": "Король Гамбринус, клуб-караоке", "address_name": "Ленинский проспект, 119", "rubrics": "Ночные клубы,Бары,Караоке-залы"}, "geometry": {"type": "Point", "coordinates": [30.259452, 59.851455]}}]}