id,name,address_name,lon,lat,rubrics
5348552840368880,"Vega, компьютерный клуб","Промышленная улица, 6",30.273492,59.899111,"Компьютерные клубы,Копировальные услуги,Клубы видеоигр"
70000001044846220,"Cyberclub Underground, компьютерный клуб","проспект Маршала Жукова, 30 к4",30.229678,59.856409,Компьютерные клубы
70000001039210150,"Colizeum, компьютерный клуб","улица Маршала Говорова, 14",30.267459,59.879755,"Компьютерные клубы,Клубы видеоигр"
70000001083346390,"Colizeum, компьютерный клуб","проспект Ветеранов, 109 к4",30.19749,59.833398,Компьютерные клубы
70000001068864531,"Cyber Samurai, компьютерный клуб","проспект Маршала Жукова, 60г",30.204397,59.837992,Компьютерные клубы
70000001023818256,"Fitness24, фитнес-клуб","улица Солдата Корзуна, 1 к2",30.21614,59.833847,"Фитнес-клубы,Бассейны,Тренажёрные залы,Спортивные секции"
5348552839838750,"Король Гамбринус, клуб-караоке","Ленинский проспект, 119",30.259452,59.851455,"Ночные клубы,Бары,Караоке-залы"
70000001053725694,"True gamers, киберспортивный клуб","Ленинский проспект, 122 к2",30.260136,59.852893,"Клубы видеоигр,Компьютерные клубы"
